[
{
  "開始時間": "",
  "tel": "33-1111",
  "設置場所_詳細": "",
  "latitude": 36.025579,
  "longitude": 139.736781,
  "kana": "スギトマチヤクバ",
  "name": "杉戸町役場",
  "address": "清地2-9-29",
  "終了時間": "",
  "日時備考": "",
  "情報源（ソース）": "",
  "小児用パッドの有無": "",
  "団体名": "杉戸町",
  "団体コード": 114642,
  "利用可能時間": "08：30～17：15",
  "利用可能日": "",
  "AED画像_画像テキスト": "",
  "AED画像_画像": "",
  "AED画像_ライセンス": ""
},
{
  "開始時間": "",
  "tel": "33-8192",
  "設置場所_詳細": "",
  "latitude": 36.022607,
  "longitude": 139.744714,
  "kana": "スギトピア",
  "name": "すぎとピア",
  "address": "堤根4742-1",
  "終了時間": "",
  "日時備考": "",
  "情報源（ソース）": "",
  "小児用パッドの有無": "",
  "団体名": "杉戸町",
  "団体コード": 114642,
  "利用可能時間": "",
  "利用可能日": "",
  "AED画像_画像テキスト": "",
  "AED画像_画像": "",
  "AED画像_ライセンス": ""
},
{
  "開始時間": "",
  "tel": "34-1188",
  "設置場所_詳細": "",
  "latitude": 36.02231,
  "longitude": 139.743837,
  "kana": "ホケンセンター",
  "name": "保健センター",
  "address": "堤根4745-1",
  "終了時間": "",
  "日時備考": "",
  "情報源（ソース）": "",
  "小児用パッドの有無": "",
  "団体名": "杉戸町",
  "団体コード": 114642,
  "利用可能時間": "",
  "利用可能日": "",
  "AED画像_画像テキスト": "",
  "AED画像_画像": "",
  "AED画像_ライセンス": ""
},
{
  "開始時間": "",
  "tel": "31-2111",
  "設置場所_詳細": "",
  "latitude": 36.046804,
  "longitude": 139.726506,
  "kana": "ショウガイガクシュウセンター",
  "name": "生涯学習センター・町立図書館",
  "address": "大島477-8",
  "終了時間": "",
  "日時備考": "",
  "情報源（ソース）": "",
  "小児用パッドの有無": "",
  "団体名": "杉戸町",
  "団体コード": 114642,
  "利用可能時間": "",
  "利用可能日": "",
  "AED画像_画像テキスト": "",
  "AED画像_画像": "",
  "AED画像_ライセンス": ""
},
{
  "開始時間": "",
  "tel": "36-5122",
  "設置場所_詳細": "",
  "latitude": 36.039462,
  "longitude": 139.791777,
  "kana": "フカワサンギョウダンチチクセンター",
  "name": "深輪産業団地地区センター",
  "address": "深輪317-5",
  "終了時間": "",
  "日時備考": "",
  "情報源（ソース）": "",
  "小児用パッドの有無": "",
  "団体名": "杉戸町",
  "団体コード": 114642,
  "利用可能時間": "",
  "利用可能日": "",
  "AED画像_画像テキスト": "",
  "AED画像_画像": "",
  "AED画像_ライセンス": ""
},
{
  "開始時間": "",
  "tel": "37-1232",
  "設置場所_詳細": "",
  "latitude": 36.032169,
  "longitude": 139.726226,
  "kana": "ジョウゲスイドウカ",
  "name": "上下水道課",
  "address": "杉戸1-1-1",
  "終了時間": "",
  "日時備考": "",
  "情報源（ソース）": "",
  "小児用パッドの有無": "",
  "団体名": "杉戸町",
  "団体コード": 114642,
  "利用可能時間": "",
  "利用可能日": "",
  "AED画像_画像テキスト": "",
  "AED画像_画像": "",
  "AED画像_ライセンス": ""
},
{
  "開始時間": "",
  "tel": "38-0401",
  "設置場所_詳細": "",
  "latitude": 36.055644,
  "longitude": 139.789448,
  "kana": "カンキョウセンター",
  "name": "環境センター",
  "address": "木津内577",
  "終了時間": "",
  "日時備考": "",
  "情報源（ソース）": "",
  "小児用パッドの有無": "",
  "団体名": "杉戸町",
  "団体コード": 114642,
  "利用可能時間": "",
  "利用可能日": "",
  "AED画像_画像テキスト": "",
  "AED画像_画像": "",
  "AED画像_ライセンス": ""
},
{
  "開始時間": "",
  "tel": "31-1855",
  "設置場所_詳細": "",
  "latitude": 36.010425,
  "longitude": 139.75557,
  "kana": "シルバージンザイセンター",
  "name": "シルバー人材センター",
  "address": "堤根3831-1",
  "終了時間": "",
  "日時備考": "",
  "情報源（ソース）": "",
  "小児用パッドの有無": "",
  "団体名": "杉戸町",
  "団体コード": 114642,
  "利用可能時間": "",
  "利用可能日": "",
  "AED画像_画像テキスト": "",
  "AED画像_画像": "",
  "AED画像_ライセンス": ""
},
{
  "開始時間": "",
  "tel": "33-0119",
  "設置場所_詳細": "",
  "latitude": 36.023043,
  "longitude": 139.743834,
  "kana": "スギトショウボウショ",
  "name": "杉戸消防署",
  "address": "堤根4750-1",
  "終了時間": "",
  "日時備考": "",
  "情報源（ソース）": "",
  "小児用パッドの有無": "",
  "団体名": "杉戸町",
  "団体コード": 114642,
  "利用可能時間": "",
  "利用可能日": "",
  "AED画像_画像テキスト": "",
  "AED画像_画像": "",
  "AED画像_ライセンス": ""
},
{
  "開始時間": "",
  "tel": "38-2300",
  "設置場所_詳細": "",
  "latitude": 36.052935,
  "longitude": 139.787387,
  "kana": "エコ・スポイズミ",
  "name": "エコ・スポいずみ",
  "address": "木津内524",
  "終了時間": "",
  "日時備考": "",
  "情報源（ソース）": "",
  "小児用パッドの有無": "",
  "団体名": "杉戸町",
  "団体コード": 114642,
  "利用可能時間": "",
  "利用可能日": "",
  "AED画像_画像テキスト": "",
  "AED画像_画像": "",
  "AED画像_ライセンス": ""
},
{
  "開始時間": "",
  "tel": "35-0419",
  "設置場所_詳細": "",
  "latitude": 36.051142,
  "longitude": 139.707841,
  "kana": "ニシキンリンコウエン",
  "name": "西近隣公園",
  "address": "高野台西4-1-3",
  "終了時間": "",
  "日時備考": "",
  "情報源（ソース）": "",
  "小児用パッドの有無": "",
  "団体名": "杉戸町",
  "団体コード": 114642,
  "利用可能時間": "",
  "利用可能日": "",
  "AED画像_画像テキスト": "",
  "AED画像_画像": "",
  "AED画像_ライセンス": ""
},
{
  "開始時間": "",
  "tel": "34-9981",
  "設置場所_詳細": "",
  "latitude": 36.03685,
  "longitude": 139.747853,
  "kana": "クラマツコウエン",
  "name": "倉松公園",
  "address": "倉松765",
  "終了時間": "",
  "日時備考": "",
  "情報源（ソース）": "",
  "小児用パッドの有無": "",
  "団体名": "杉戸町",
  "団体コード": 114642,
  "利用可能時間": "",
  "利用可能日": "",
  "AED画像_画像テキスト": "",
  "AED画像_画像": "",
  "AED画像_ライセンス": ""
},
{
  "開始時間": "",
  "tel": "37-1504",
  "設置場所_詳細": "",
  "latitude": 36.027428,
  "longitude": 139.729101,
  "kana": "コソダテシエンセンター タンポポ",
  "name": "子育て支援センター たんぽぽ",
  "address": "杉戸3-9-5",
  "終了時間": "",
  "日時備考": "",
  "情報源（ソース）": "",
  "小児用パッドの有無": "",
  "団体名": "杉戸町",
  "団体コード": 114642,
  "利用可能時間": "",
  "利用可能日": "",
  "AED画像_画像テキスト": "",
  "AED画像_画像": "",
  "AED画像_ライセンス": ""
},
{
  "開始時間": "",
  "tel": "34-6840",
  "設置場所_詳細": "",
  "latitude": 36.027428,
  "longitude": 139.729101,
  "kana": "チュウオウコウミンカン",
  "name": "中央公民館",
  "address": "杉戸3-9-5",
  "終了時間": "",
  "日時備考": "",
  "情報源（ソース）": "",
  "小児用パッドの有無": "",
  "団体名": "杉戸町",
  "団体コード": 114642,
  "利用可能時間": "",
  "利用可能日": "",
  "AED画像_画像テキスト": "",
  "AED画像_画像": "",
  "AED画像_ライセンス": ""
},
{
  "開始時間": "",
  "tel": "34-4774",
  "設置場所_詳細": "",
  "latitude": 36.015741,
  "longitude": 139.752659,
  "kana": "ミナミコウミンカン",
  "name": "南公民館",
  "address": "堤根4089-1",
  "終了時間": "",
  "日時備考": "",
  "情報源（ソース）": "",
  "小児用パッドの有無": "",
  "団体名": "杉戸町",
  "団体コード": 114642,
  "利用可能時間": "",
  "利用可能日": "",
  "AED画像_画像テキスト": "",
  "AED画像_画像": "",
  "AED画像_ライセンス": ""
},
{
  "開始時間": "",
  "tel": "32-6388",
  "設置場所_詳細": "",
  "latitude": 36.049828,
  "longitude": 139.709794,
  "kana": "ニシコウミンカン",
  "name": "西公民館",
  "address": "高野台西3-3-1",
  "終了時間": "",
  "日時備考": "",
  "情報源（ソース）": "",
  "小児用パッドの有無": "",
  "団体名": "杉戸町",
  "団体コード": 114642,
  "利用可能時間": "",
  "利用可能日": "",
  "AED画像_画像テキスト": "",
  "AED画像_画像": "",
  "AED画像_ライセンス": ""
},
{
  "開始時間": "",
  "tel": "38-0879",
  "設置場所_詳細": "",
  "latitude": 36.043851,
  "longitude": 139.79051,
  "kana": "イズミコウミンカン",
  "name": "泉公民館",
  "address": "宮前37-1",
  "終了時間": "",
  "日時備考": "",
  "情報源（ソース）": "",
  "小児用パッドの有無": "",
  "団体名": "杉戸町",
  "団体コード": 114642,
  "利用可能時間": "",
  "利用可能日": "",
  "AED画像_画像テキスト": "",
  "AED画像_画像": "",
  "AED画像_ライセンス": ""
},
{
  "開始時間": "",
  "tel": "38-2533",
  "設置場所_詳細": "",
  "latitude": 36.031032,
  "longitude": 139.76776,
  "kana": "ヒガシコウミンカン",
  "name": "東公民館",
  "address": "並塚105-4",
  "終了時間": "",
  "日時備考": "",
  "情報源（ソース）": "",
  "小児用パッドの有無": "",
  "団体名": "杉戸町",
  "団体コード": 114642,
  "利用可能時間": "",
  "利用可能日": "",
  "AED画像_画像テキスト": "",
  "AED画像_画像": "",
  "AED画像_ライセンス": ""
},
{
  "開始時間": "",
  "tel": "35-2371",
  "設置場所_詳細": "",
  "latitude": 36.047023,
  "longitude": 139.719976,
  "kana": "タカノノウソンセンター",
  "name": "高野農村センター",
  "address": "大島402-1",
  "終了時間": "",
  "日時備考": "",
  "情報源（ソース）": "",
  "小児用パッドの有無": "",
  "団体名": "杉戸町",
  "団体コード": 114642,
  "利用可能時間": "",
  "利用可能日": "",
  "AED画像_画像テキスト": "",
  "AED画像_画像": "",
  "AED画像_ライセンス": ""
},
{
  "開始時間": "",
  "tel": "32-0042",
  "設置場所_詳細": "",
  "latitude": 36.034472,
  "longitude": 139.731532,
  "kana": "スギトショウガッコウ",
  "name": "杉戸小学校",
  "address": "内田2-9-28",
  "終了時間": "",
  "日時備考": "",
  "情報源（ソース）": "",
  "小児用パッドの有無": "",
  "団体名": "杉戸町",
  "団体コード": 114642,
  "利用可能時間": "",
  "利用可能日": "",
  "AED画像_画像テキスト": "",
  "AED画像_画像": "",
  "AED画像_ライセンス": ""
},
{
  "開始時間": "",
  "tel": "32-0909",
  "設置場所_詳細": "",
  "latitude": 36.015566,
  "longitude": 139.760161,
  "kana": "スギトダイサンショウガッコウ",
  "name": "杉戸第三小学校",
  "address": "堤根2777",
  "終了時間": "",
  "日時備考": "",
  "情報源（ソース）": "",
  "小児用パッドの有無": "",
  "団体名": "杉戸町",
  "団体コード": 114642,
  "利用可能時間": "",
  "利用可能日": "",
  "AED画像_画像テキスト": "",
  "AED画像_画像": "",
  "AED画像_ライセンス": ""
},
{
  "開始時間": "",
  "tel": "32-2016",
  "設置場所_詳細": "",
  "latitude": 36.049053,
  "longitude": 139.709552,
  "kana": "ニシショウガッコウ",
  "name": "西小学校",
  "address": "高野台南5-1-1",
  "終了時間": "",
  "日時備考": "",
  "情報源（ソース）": "",
  "小児用パッドの有無": "",
  "団体名": "杉戸町",
  "団体コード": 114642,
  "利用可能時間": "",
  "利用可能日": "",
  "AED画像_画像テキスト": "",
  "AED画像_画像": "",
  "AED画像_ライセンス": ""
},
{
  "開始時間": "",
  "tel": "34-6231",
  "設置場所_詳細": "",
  "latitude": 36.0346,
  "longitude": 139.746233,
  "kana": "スギトダイニショウガッコウ",
  "name": "杉戸第二小学校",
  "address": "倉松600-1",
  "終了時間": "",
  "日時備考": "",
  "情報源（ソース）": "",
  "小児用パッドの有無": "",
  "団体名": "杉戸町",
  "団体コード": 114642,
  "利用可能時間": "",
  "利用可能日": "",
  "AED画像_画像テキスト": "",
  "AED画像_画像": "",
  "AED画像_ライセンス": ""
},
{
  "開始時間": "",
  "tel": "38-2000",
  "設置場所_詳細": "",
  "latitude": 36.042128,
  "longitude": 139.791407,
  "kana": "イズミショウガッコウ",
  "name": "泉小学校",
  "address": "宮前1",
  "終了時間": "",
  "日時備考": "",
  "情報源（ソース）": "",
  "小児用パッドの有無": "",
  "団体名": "杉戸町",
  "団体コード": 114642,
  "利用可能時間": "",
  "利用可能日": "",
  "AED画像_画像テキスト": "",
  "AED画像_画像": "",
  "AED画像_ライセンス": ""
},
{
  "開始時間": "",
  "tel": "33-3110",
  "設置場所_詳細": "",
  "latitude": 36.053516,
  "longitude": 139.706163,
  "kana": "タカノダイショウガッコウ",
  "name": "高野台小学校",
  "address": "高野台西5-16",
  "終了時間": "",
  "日時備考": "",
  "情報源（ソース）": "",
  "小児用パッドの有無": "",
  "団体名": "杉戸町",
  "団体コード": 114642,
  "利用可能時間": "",
  "利用可能日": "",
  "AED画像_画像テキスト": "",
  "AED画像_画像": "",
  "AED画像_ライセンス": ""
},
{
  "開始時間": "",
  "tel": "32-0132",
  "設置場所_詳細": "",
  "latitude": 36.033525,
  "longitude": 139.728709,
  "kana": "スギトチュウガッコウ",
  "name": "杉戸中学校",
  "address": "内田1-5-35",
  "終了時間": "",
  "日時備考": "",
  "情報源（ソース）": "",
  "小児用パッドの有無": "",
  "団体名": "杉戸町",
  "団体コード": 114642,
  "利用可能時間": "",
  "利用可能日": "",
  "AED画像_画像テキスト": "",
  "AED画像_画像": "",
  "AED画像_ライセンス": ""
},
{
  "開始時間": "",
  "tel": "38-2005",
  "設置場所_詳細": "",
  "latitude": 36.032901,
  "longitude": 139.778106,
  "kana": "ヒガシチュウガッコウ",
  "name": "東中学校",
  "address": "椿250",
  "終了時間": "",
  "日時備考": "",
  "情報源（ソース）": "",
  "小児用パッドの有無": "",
  "団体名": "杉戸町",
  "団体コード": 114642,
  "利用可能時間": "",
  "利用可能日": "",
  "AED画像_画像テキスト": "",
  "AED画像_画像": "",
  "AED画像_ライセンス": ""
},
{
  "開始時間": "",
  "tel": "34-5791",
  "設置場所_詳細": "",
  "latitude": 36.025201,
  "longitude": 139.745581,
  "kana": "ヒロシマチュウガッコウ",
  "name": "広島中学校",
  "address": "堤根4759",
  "終了時間": "",
  "日時備考": "",
  "情報源（ソース）": "",
  "小児用パッドの有無": "",
  "団体名": "杉戸町",
  "団体コード": 114642,
  "利用可能時間": "",
  "利用可能日": "",
  "AED画像_画像テキスト": "",
  "AED画像_画像": "",
  "AED画像_ライセンス": ""
},
{
  "開始時間": "",
  "tel": "34-2961",
  "設置場所_詳細": "",
  "latitude": 36.038485,
  "longitude": 139.72812,
  "kana": "チュウオウヨウチエン",
  "name": "中央幼稚園",
  "address": "杉戸2199",
  "終了時間": "",
  "日時備考": "",
  "情報源（ソース）": "",
  "小児用パッドの有無": "",
  "団体名": "杉戸町",
  "団体コード": 114642,
  "利用可能時間": "",
  "利用可能日": "",
  "AED画像_画像テキスト": "",
  "AED画像_画像": "",
  "AED画像_ライセンス": ""
},
{
  "開始時間": "",
  "tel": "33-3223",
  "設置場所_詳細": "",
  "latitude": 36.049436,
  "longitude": 139.710124,
  "kana": "ニシヨウチエン",
  "name": "西幼稚園",
  "address": "高野台南4066-1",
  "終了時間": "",
  "日時備考": "",
  "情報源（ソース）": "",
  "小児用パッドの有無": "",
  "団体名": "杉戸町",
  "団体コード": 114642,
  "利用可能時間": "",
  "利用可能日": "",
  "AED画像_画像テキスト": "",
  "AED画像_画像": "",
  "AED画像_ライセンス": ""
},
{
  "開始時間": "",
  "tel": "53-8266",
  "設置場所_詳細": "",
  "latitude": 36.029523,
  "longitude": 139.750614,
  "kana": "スギトヨウチエン",
  "name": "すぎと幼稚園",
  "address": "清地1768-3",
  "終了時間": "",
  "日時備考": "",
  "情報源（ソース）": "",
  "小児用パッドの有無": "",
  "団体名": "杉戸町",
  "団体コード": 114642,
  "利用可能時間": "",
  "利用可能日": "",
  "AED画像_画像テキスト": "",
  "AED画像_画像": "",
  "AED画像_ライセンス": ""
},
{
  "開始時間": "",
  "tel": "34-9416",
  "設置場所_詳細": "",
  "latitude": 36.035941,
  "longitude": 139730793.0,
  "kana": "ウチダホイクエン",
  "name": "内田保育園",
  "address": "内田3-16-16",
  "終了時間": "",
  "日時備考": "",
  "情報源（ソース）": "",
  "小児用パッドの有無": "",
  "団体名": "杉戸町",
  "団体コード": 114642,
  "利用可能時間": "",
  "利用可能日": "",
  "AED画像_画像テキスト": "",
  "AED画像_画像": "",
  "AED画像_ライセンス": ""
},
{
  "開始時間": "",
  "tel": "31-2501",
  "設置場所_詳細": "",
  "latitude": 36.047356,
  "longitude": 139.713257,
  "kana": "タカノダイホイクエン",
  "name": "高野台保育園",
  "address": "高野台南2-8",
  "終了時間": "",
  "日時備考": "",
  "情報源（ソース）": "",
  "小児用パッドの有無": "",
  "団体名": "杉戸町",
  "団体コード": 114642,
  "利用可能時間": "",
  "利用可能日": "",
  "AED画像_画像テキスト": "",
  "AED画像_画像": "",
  "AED画像_ライセンス": ""
},
{
  "開始時間": "",
  "tel": "38-0621",
  "設置場所_詳細": "",
  "latitude": 36.044892,
  "longitude": 139.790904,
  "kana": "イズミホイクエン",
  "name": "泉保育園",
  "address": "宮前75-1",
  "終了時間": "",
  "日時備考": "",
  "情報源（ソース）": "",
  "小児用パッドの有無": "",
  "団体名": "杉戸町",
  "団体コード": 114642,
  "利用可能時間": "",
  "利用可能日": "",
  "AED画像_画像テキスト": "",
  "AED画像_画像": "",
  "AED画像_ライセンス": ""
},
{
  "開始時間": "",
  "tel": "53-8479",
  "設置場所_詳細": "",
  "latitude": 36.029523,
  "longitude": 139.750614,
  "kana": "スギトホイクエン",
  "name": "すぎと保育園",
  "address": "清地1768-3",
  "終了時間": "",
  "日時備考": "",
  "情報源（ソース）": "",
  "小児用パッドの有無": "",
  "団体名": "杉戸町",
  "団体コード": 114642,
  "利用可能時間": "",
  "利用可能日": "",
  "AED画像_画像テキスト": "",
  "AED画像_画像": "",
  "AED画像_ライセンス": ""
},
{
  "開始時間": "",
  "tel": "38-4189",
  "設置場所_詳細": "",
  "latitude": 36.024632,
  "longitude": 139.76926,
  "kana": "アグリパークユメスギト",
  "name": "アグリパークゆめすぎと",
  "address": "才羽823-2",
  "終了時間": "",
  "日時備考": "",
  "情報源（ソース）": "",
  "小児用パッドの有無": "",
  "団体名": "杉戸町",
  "団体コード": 114642,
  "利用可能時間": "",
  "利用可能日": "",
  "AED画像_画像テキスト": "",
  "AED画像_画像": "",
  "AED画像_ライセンス": ""
},
{
  "開始時間": "",
  "tel": "34-3381",
  "設置場所_詳細": "",
  "latitude": 36.048936,
  "longitude": 139.699256,
  "kana": "ショウヘイチュウガク・コウトウガッコウ",
  "name": "昌平中学・高等学校",
  "address": "下野851",
  "終了時間": "",
  "日時備考": "",
  "情報源（ソース）": "",
  "小児用パッドの有無": "",
  "団体名": "杉戸町",
  "団体コード": 114642,
  "利用可能時間": "",
  "利用可能日": "",
  "AED画像_画像テキスト": "",
  "AED画像_画像": "",
  "AED画像_ライセンス": ""
},
{
  "開始時間": "",
  "tel": "38-1810",
  "設置場所_詳細": "",
  "latitude": 36.041756,
  "longitude": 139.770076,
  "kana": "シガクカイコウトウガッコウ",
  "name": "志学会高等学校",
  "address": "並塚1643",
  "終了時間": "",
  "日時備考": "",
  "情報源（ソース）": "",
  "小児用パッドの有無": "",
  "団体名": "杉戸町",
  "団体コード": 114642,
  "利用可能時間": "",
  "利用可能日": "",
  "AED画像_画像テキスト": "",
  "AED画像_画像": "",
  "AED画像_ライセンス": ""
},
{
  "開始時間": "",
  "tel": "32-3641",
  "設置場所_詳細": "",
  "latitude": 36.041659,
  "longitude": 139.70635,
  "kana": "スギトシラユリヨウチエン",
  "name": "杉戸白百合幼稚園",
  "address": "下高野572-5",
  "終了時間": "",
  "日時備考": "",
  "情報源（ソース）": "",
  "小児用パッドの有無": "",
  "団体名": "杉戸町",
  "団体コード": 114642,
  "利用可能時間": "",
  "利用可能日": "",
  "AED画像_画像テキスト": "",
  "AED画像_画像": "",
  "AED画像_ライセンス": ""
},
{
  "開始時間": "",
  "tel": "34-8474",
  "設置場所_詳細": "",
  "latitude": 36.030437,
  "longitude": 139.746334,
  "kana": "ワカバホイクエン",
  "name": "わかば保育園",
  "address": "倉松700",
  "終了時間": "",
  "日時備考": "",
  "情報源（ソース）": "",
  "小児用パッドの有無": "",
  "団体名": "杉戸町",
  "団体コード": 114642,
  "利用可能時間": "",
  "利用可能日": "",
  "AED画像_画像テキスト": "",
  "AED画像_画像": "",
  "AED画像_ライセンス": ""
},
{
  "開始時間": "",
  "tel": "32-2841",
  "設置場所_詳細": "",
  "latitude": 36.029631,
  "longitude": 139.724279,
  "kana": "スギトジビインコウカイイン",
  "name": "杉戸耳鼻咽喉科医院",
  "address": "杉戸4-15-8",
  "終了時間": "",
  "日時備考": "",
  "情報源（ソース）": "",
  "小児用パッドの有無": "",
  "団体名": "杉戸町",
  "団体コード": 114642,
  "利用可能時間": "",
  "利用可能日": "",
  "AED画像_画像テキスト": "",
  "AED画像_画像": "",
  "AED画像_ライセンス": ""
},
{
  "開始時間": "",
  "tel": "37-2511",
  "設置場所_詳細": "",
  "latitude": 36.027776,
  "longitude": 139.737231,
  "kana": "ヒガシサイタマソウゴウビョウインフゾクセイチクリニック",
  "name": "東埼玉総合病院附属清地クリニック",
  "address": "清地5-1-2",
  "終了時間": "",
  "日時備考": "",
  "情報源（ソース）": "",
  "小児用パッドの有無": "",
  "団体名": "杉戸町",
  "団体コード": 114642,
  "利用可能時間": "",
  "利用可能日": "",
  "AED画像_画像テキスト": "",
  "AED画像_画像": "",
  "AED画像_ライセンス": ""
},
{
  "開始時間": "",
  "tel": "33-8690",
  "設置場所_詳細": "",
  "latitude": 36.053116,
  "longitude": 139.709974,
  "kana": "イノウエショウニカヒフカ",
  "name": "井上小児科皮フ科",
  "address": "高野台西2-6-3",
  "終了時間": "",
  "日時備考": "",
  "情報源（ソース）": "",
  "小児用パッドの有無": "",
  "団体名": "杉戸町",
  "団体コード": 114642,
  "利用可能時間": "",
  "利用可能日": "",
  "AED画像_画像テキスト": "",
  "AED画像_画像": "",
  "AED画像_ライセンス": ""
},
{
  "開始時間": "",
  "tel": "32-0336",
  "設置場所_詳細": "",
  "latitude": 36.029706,
  "longitude": 139.26518,
  "kana": "コジマナイカイイン",
  "name": "小島内科医院",
  "address": "杉戸4-2-2",
  "終了時間": "",
  "日時備考": "",
  "情報源（ソース）": "",
  "小児用パッドの有無": "",
  "団体名": "杉戸町",
  "団体コード": 114642,
  "利用可能時間": "",
  "利用可能日": "",
  "AED画像_画像テキスト": "",
  "AED画像_画像": "",
  "AED画像_ライセンス": ""
},
{
  "開始時間": "",
  "tel": "33-3314",
  "設置場所_詳細": "",
  "latitude": 36.048856,
  "longitude": 139.712949,
  "kana": "ヤマネイイン",
  "name": "山根医院",
  "address": "高野台南2-3-12",
  "終了時間": "",
  "日時備考": "",
  "情報源（ソース）": "",
  "小児用パッドの有無": "",
  "団体名": "杉戸町",
  "団体コード": 114642,
  "利用可能時間": "",
  "利用可能日": "",
  "AED画像_画像テキスト": "",
  "AED画像_画像": "",
  "AED画像_ライセンス": ""
},
{
  "開始時間": "",
  "tel": "37-2151",
  "設置場所_詳細": "",
  "latitude": 36.052658,
  "longitude": 139.713163,
  "kana": "ゴトウクリニック",
  "name": "後藤クリニック",
  "address": "高野台西1-11-24",
  "終了時間": "",
  "日時備考": "",
  "情報源（ソース）": "",
  "小児用パッドの有無": "",
  "団体名": "杉戸町",
  "団体コード": 114642,
  "利用可能時間": "",
  "利用可能日": "",
  "AED画像_画像テキスト": "",
  "AED画像_画像": "",
  "AED画像_ライセンス": ""
},
{
  "開始時間": "",
  "tel": "33-3325",
  "設置場所_詳細": "",
  "latitude": 36.031653,
  "longitude": 139.728529,
  "kana": "ナガオカサンフジンカイイン",
  "name": "長岡産婦人科医院",
  "address": "杉戸2-3-10",
  "終了時間": "",
  "日時備考": "",
  "情報源（ソース）": "",
  "小児用パッドの有無": "",
  "団体名": "杉戸町",
  "団体コード": 114642,
  "利用可能時間": "",
  "利用可能日": "",
  "AED画像_画像テキスト": "",
  "AED画像_画像": "",
  "AED画像_ライセンス": ""
},
{
  "開始時間": "",
  "tel": "33-0088",
  "設置場所_詳細": "",
  "latitude": 36.040515,
  "longitude": 139.711841,
  "kana": "スギトクリニック",
  "name": "杉戸クリニック",
  "address": "下高野1760-1",
  "終了時間": "",
  "日時備考": "",
  "情報源（ソース）": "",
  "小児用パッドの有無": "",
  "団体名": "杉戸町",
  "団体コード": 114642,
  "利用可能時間": "",
  "利用可能日": "",
  "AED画像_画像テキスト": "",
  "AED画像_画像": "",
  "AED画像_ライセンス": ""
},
{
  "開始時間": "",
  "tel": "32-5708",
  "設置場所_詳細": "",
  "latitude": 36.048245,
  "longitude": 139.711691,
  "kana": "カメイシカイイン",
  "name": "かめい歯科医院",
  "address": "高野台南2-12-15",
  "終了時間": "",
  "日時備考": "",
  "情報源（ソース）": "",
  "小児用パッドの有無": "",
  "団体名": "杉戸町",
  "団体コード": 114642,
  "利用可能時間": "",
  "利用可能日": "",
  "AED画像_画像テキスト": "",
  "AED画像_画像": "",
  "AED画像_ライセンス": ""
},
{
  "開始時間": "",
  "tel": "32-0321",
  "設置場所_詳細": "",
  "latitude": 36.026684,
  "longitude": 139.728249,
  "kana": "イナバシカイイン",
  "name": "稲葉歯科医院",
  "address": "杉戸3-9-20",
  "終了時間": "",
  "日時備考": "",
  "情報源（ソース）": "",
  "小児用パッドの有無": "",
  "団体名": "杉戸町",
  "団体コード": 114642,
  "利用可能時間": "",
  "利用可能日": "",
  "AED画像_画像テキスト": "",
  "AED画像_画像": "",
  "AED画像_ライセンス": ""
},
{
  "開始時間": "",
  "tel": "32-7070",
  "設置場所_詳細": "",
  "latitude": 36.0494,
  "longitude": 139.710583,
  "kana": "ファミリーシカイワサキ",
  "name": "ファミリー歯科岩崎",
  "address": "高野台南1-2-11",
  "終了時間": "",
  "日時備考": "",
  "情報源（ソース）": "",
  "小児用パッドの有無": "",
  "団体名": "杉戸町",
  "団体コード": 114642,
  "利用可能時間": "",
  "利用可能日": "",
  "AED画像_画像テキスト": "",
  "AED画像_画像": "",
  "AED画像_ライセンス": ""
},
{
  "開始時間": "",
  "tel": "32-0049",
  "設置場所_詳細": "",
  "latitude": 36.028492,
  "longitude": 139.729151,
  "kana": "スギタシカイイン",
  "name": "杉田歯科医院",
  "address": "杉戸3-2-3",
  "終了時間": "",
  "日時備考": "",
  "情報源（ソース）": "",
  "小児用パッドの有無": "",
  "団体名": "杉戸町",
  "団体コード": 114642,
  "利用可能時間": "",
  "利用可能日": "",
  "AED画像_画像テキスト": "",
  "AED画像_画像": "",
  "AED画像_ライセンス": ""
},
{
  "開始時間": "",
  "tel": "32-0908",
  "設置場所_詳細": "",
  "latitude": 36.048484,
  "longitude": 139.708024,
  "kana": "ジェイエーサイタマミズホタカノシテン",
  "name": "ＪＡ埼玉みずほ高野支店",
  "address": "下高野1090-1",
  "終了時間": "",
  "日時備考": "",
  "情報源（ソース）": "",
  "小児用パッドの有無": "",
  "団体名": "杉戸町",
  "団体コード": 114642,
  "利用可能時間": "",
  "利用可能日": "",
  "AED画像_画像テキスト": "",
  "AED画像_画像": "",
  "AED画像_ライセンス": ""
},
{
  "開始時間": "",
  "tel": "38-1043",
  "設置場所_詳細": "",
  "latitude": 36.03357,
  "longitude": 139.764769,
  "kana": "ジェイエーサイタマミズホスギトヒガシシテン",
  "name": "ＪＡ埼玉みずほ杉戸東支店",
  "address": "並塚1127",
  "終了時間": "",
  "日時備考": "",
  "情報源（ソース）": "",
  "小児用パッドの有無": "",
  "団体名": "杉戸町",
  "団体コード": 114642,
  "利用可能時間": "",
  "利用可能日": "",
  "AED画像_画像テキスト": "",
  "AED画像_画像": "",
  "AED画像_ライセンス": ""
},
{
  "開始時間": "",
  "tel": "38-0455",
  "設置場所_詳細": "",
  "latitude": 36.045384,
  "longitude": 139.792657,
  "kana": "ジェイエーサイタマミズホトヨオカシテン",
  "name": "ＪＡ埼玉みずほ豊岡支店",
  "address": "宮前103-2",
  "終了時間": "",
  "日時備考": "",
  "情報源（ソース）": "",
  "小児用パッドの有無": "",
  "団体名": "杉戸町",
  "団体コード": 114642,
  "利用可能時間": "",
  "利用可能日": "",
  "AED画像_画像テキスト": "",
  "AED画像_画像": "",
  "AED画像_ライセンス": ""
},
{
  "開始時間": "",
  "tel": "34-0551",
  "設置場所_詳細": "",
  "latitude": 36.027124,
  "longitude": 139.73315,
  "kana": "ジェイエーサイタマミズホ　スギトチュウオウシテン",
  "name": "ＪＡ埼玉みずほ杉戸中央支店",
  "address": "清地1-1-37",
  "終了時間": "",
  "日時備考": "",
  "情報源（ソース）": "",
  "小児用パッドの有無": "",
  "団体名": "杉戸町",
  "団体コード": 114642,
  "利用可能時間": "",
  "利用可能日": "",
  "AED画像_画像テキスト": "",
  "AED画像_画像": "",
  "AED画像_ライセンス": ""
},
{
  "開始時間": "",
  "tel": "38-1118",
  "設置場所_詳細": "",
  "latitude": 36.026538,
  "longitude": 139.774379,
  "kana": "サンプウカイショウナイ",
  "name": "杉風会庄内",
  "address": "才羽113",
  "終了時間": "",
  "日時備考": "",
  "情報源（ソース）": "",
  "小児用パッドの有無": "",
  "団体名": "杉戸町",
  "団体コード": 114642,
  "利用可能時間": "",
  "利用可能日": "",
  "AED画像_画像テキスト": "",
  "AED画像_画像": "",
  "AED画像_ライセンス": ""
},
{
  "開始時間": "",
  "tel": "34-2063",
  "設置場所_詳細": "",
  "latitude": 36.02704,
  "longitude": 139.735995,
  "kana": "デイサービスヒガシサイタマ",
  "name": "デイサービス東埼玉",
  "address": "清地2-1-2",
  "終了時間": "",
  "日時備考": "",
  "情報源（ソース）": "",
  "小児用パッドの有無": "",
  "団体名": "杉戸町",
  "団体コード": 114642,
  "利用可能時間": "",
  "利用可能日": "",
  "AED画像_画像テキスト": "",
  "AED画像_画像": "",
  "AED画像_ライセンス": ""
},
{
  "開始時間": "",
  "tel": "37-4165",
  "設置場所_詳細": "",
  "latitude": 36.049717,
  "longitude": 139.718521,
  "kana": "トクベツヨウゴロウジンホームハナミズキ",
  "name": "特別養護老人ホーム はなみずき",
  "address": "茨島731-1",
  "終了時間": "",
  "日時備考": "",
  "情報源（ソース）": "",
  "小児用パッドの有無": "",
  "団体名": "杉戸町",
  "団体コード": 114642,
  "利用可能時間": "",
  "利用可能日": "",
  "AED画像_画像テキスト": "",
  "AED画像_画像": "",
  "AED画像_ライセンス": ""
},
{
  "開始時間": "",
  "tel": "34-0113",
  "設置場所_詳細": "",
  "latitude": 36.051558,
  "longitude": 139.714596,
  "kana": "トウブテツドウ（カブ）スギトタカノダイエキ",
  "name": "東武鉄道（カブ）杉戸高野台駅",
  "address": "高野台東1-19-8",
  "終了時間": "",
  "日時備考": "",
  "情報源（ソース）": "",
  "小児用パッドの有無": "",
  "団体名": "杉戸町",
  "団体コード": 114642,
  "利用可能時間": "",
  "利用可能日": "",
  "AED画像_画像テキスト": "",
  "AED画像_画像": "",
  "AED画像_ライセンス": ""
},
{
  "開始時間": "",
  "tel": "34-1221",
  "設置場所_詳細": "",
  "latitude": 36.028598,
  "longitude": 139.730368,
  "kana": "（カブ）サイタマリソナギンコウ　スギトシテン",
  "name": "（株）埼玉りそな銀行 杉戸支店",
  "address": "",
  "終了時間": "",
  "日時備考": "",
  "情報源（ソース）": "",
  "小児用パッドの有無": "",
  "団体名": "杉戸町",
  "団体コード": 114642,
  "利用可能時間": "",
  "利用可能日": "",
  "AED画像_画像テキスト": "",
  "AED画像_画像": "",
  "AED画像_ライセンス": ""
},
{
  "開始時間": "",
  "tel": "34-4141",
  "設置場所_詳細": "",
  "latitude": 36.029273,
  "longitude": 139.728362,
  "kana": "サイタマケンシンヨウキンコ　スギトシテン",
  "name": "埼玉縣信用金庫　杉戸支店",
  "address": "杉戸2-15-21",
  "終了時間": "",
  "日時備考": "",
  "情報源（ソース）": "",
  "小児用パッドの有無": "",
  "団体名": "杉戸町",
  "団体コード": 114642,
  "利用可能時間": "",
  "利用可能日": "",
  "AED画像_画像テキスト": "",
  "AED画像_画像": "",
  "AED画像_ライセンス": ""
},
{
  "開始時間": "",
  "tel": "33-5741",
  "設置場所_詳細": "",
  "latitude": 36.050975,
  "longitude": 139.713913,
  "kana": "ムサシノギンコウスギトタカノダイシテン",
  "name": "武蔵野銀行杉戸高野台支店",
  "address": "高野台西1-1-3",
  "終了時間": "",
  "日時備考": "",
  "情報源（ソース）": "",
  "小児用パッドの有無": "",
  "団体名": "杉戸町",
  "団体コード": 114642,
  "利用可能時間": "",
  "利用可能日": "",
  "AED画像_画像テキスト": "",
  "AED画像_画像": "",
  "AED画像_ライセンス": ""
},
{
  "開始時間": "",
  "tel": "36-2382",
  "設置場所_詳細": "",
  "latitude": 36.033183,
  "longitude": 139.726485,
  "kana": "ニッサンブヒンサイタマハンバイ（カブ）スギトテン",
  "name": "日産部品埼玉販売（株）杉戸店",
  "address": "内田1-2-20",
  "終了時間": "",
  "日時備考": "",
  "情報源（ソース）": "",
  "小児用パッドの有無": "",
  "団体名": "杉戸町",
  "団体コード": 114642,
  "利用可能時間": "",
  "利用可能日": "",
  "AED画像_画像テキスト": "",
  "AED画像_画像": "",
  "AED画像_ライセンス": ""
}
]